City,Lat,Lng,Max Temp,Humidity,Cloudiness,Wind Speed,Country,Date
Hong Kong,22.29,114.16,64.99,75,14,7.29,HK,1609853050
Vakhrushev,48.98,142.97,-3.82,85,0,5.5,RU,1609853181
Khanbari,27.37,87.2,61.36,55,100,1.01,NP,1609853182
Chardara,41.25,67.97,29.53,77,28,5.64,KZ,1609853183
Port Alfred,-33.59,26.89,78.01,83,25,3.0,ZA,1609853184
Port Elizabeth,-33.92,25.57,78.8,65,75,10.29,ZA,1609853185
Hilo,19.73,-155.09,69.8,83,90,4.7,US,1609852970
Fortuna,40.6,-124.16,44.01,100,1,13.87,US,1609853187
Pangody,65.85,74.49,-14.39,89,69,11.23,RU,1609853189
Cap-aux-Meules,47.38,-61.86,32.0,88,100,16.11,CA,1609853190
Athabasca,54.72,-113.29,26.6,79,100,3.36,CA,1609853191
Ushuaia,-54.8,-68.3,53.6,54,0,4.7,AR,1609853191
Mareeba,-17.0,145.43,79.0,100,90,5.82,AU,1609853193
Dunedin,-45.87,170.5,54.0,90,0,1.99,NZ,1609852937
Kamiiso,41.82,140.65,18.18,93,52,4.94,JP,1609853195
Portland,45.52,-122.68,45.0,85,100,3.0,US,1609852903
Saint Paul Harbor,57.79,-152.41,37.4,93,90,19.46,US,1609853197
Rikitea,-23.12,-134.97,75.99,74,0,13.58,PF,1609853198
Chui,-33.7,-53.46,78.13,66,30,11.45,UY,1609853202
Hobart,-42.88,147.33,61.0,82,75,3.36,AU,1609853175
Saint-Philippe,-21.36,55.77,84.2,62,75,21.92,RE,1609853204
Tuktoyaktuk,69.45,-133.04,-13.77,88,100,9.57,CA,1609853205
Mar del Plata,-38.0,-57.56,66.99,100,90,20.8,AR,1609853206
Onokhino,56.92,65.54,-7.6,69,40,11.18,RU,1609853208
Antofagasta,-23.65,-70.4,66.2,82,40,6.93,CL,1609853210
Cape Town,-33.93,18.42,75.2,57,20,24.16,ZA,1609853032
Makushino,55.21,67.24,-5.94,89,100,10.22,RU,1609853213
Kutum,14.2,24.67,86.65,12,0,13.58,SD,1609853214
Båtsfjord,70.63,29.72,35.6,86,40,14.99,NO,1609853215
Mataura,-46.19,168.86,51.01,94,19,1.99,NZ,1609853216
Progreso,21.28,-89.67,71.6,83,75,3.36,MX,1609853217
Kapaa,22.08,-159.32,73.4,78,40,11.41,US,1609853218
Hermanus,-34.42,19.23,72.0,72,96,1.99,ZA,1609853219
Chicama,-7.84,-79.15,66.2,88,40,6.93,PE,1609853220
Chokurdakh,70.63,147.92,-16.35,89,100,11.07,RU,1609853221
Vaini,-21.2,-175.2,77.0,94,40,4.7,TO,1609853223
Butaritari,3.07,172.79,81.27,76,95,19.82,KI,1609853224
Berekum,7.45,-2.58,95.92,33,34,5.19,GH,1609853225
Tiksi,71.69,128.87,-21.39,86,99,13.0,RU,1609853227
Songjianghe,42.19,127.48,-4.5,83,0,1.21,CN,1609853228
Katsuura,35.13,140.3,46.0,81,75,8.05,JP,1609853229
Castro,-24.79,-50.01,75.24,67,99,6.58,BR,1609853230
Jamestown,42.1,-79.24,32.0,92,90,0.87,US,1609853222
Atuona,-9.8,-139.03,77.36,77,1,17.11,PF,1609853232
Tsumeb,-19.23,17.72,78.22,60,100,6.08,NA,1609853234
Tooele,40.53,-112.3,39.99,91,90,6.93,US,1609853235
Marawi,8.0,124.29,78.01,90,77,7.0,PH,1609853236
Ribeira Grande,38.52,-28.7,60.8,87,75,34.45,PT,1609853237
Eureka,40.8,-124.16,43.0,87,3,1.99,US,1609853005
Muros,42.78,-9.06,46.99,93,1,3.0,ES,1609853239
Puerto Ayora,-0.74,-90.35,73.99,90,65,1.99,EC,1609853240
Thoen,17.61,99.22,71.78,57,37,0.51,TH,1609853241
Kargil,34.57,76.1,18.16,92,100,2.24,IN,1609853242
Saskylakh,71.92,114.08,-12.08,87,87,13.91,RU,1609853243
Carnarvon,-24.87,113.63,82.4,74,75,4.7,AU,1609853244
Sur,22.57,59.53,70.61,36,0,11.92,OM,1609853246
Dunmore East,52.15,-6.99,39.0,93,40,10.29,IE,1609853247
Severo-Kuril'sk,50.68,156.12,18.07,90,76,21.34,RU,1609853248
Lázaro Cárdenas,17.96,-102.2,70.3,81,0,3.89,MX,1609853249
Tuatapere,-46.13,167.68,51.01,94,3,1.99,NZ,1609853250
Tiarei,-17.53,-149.33,75.2,83,75,9.17,PF,1609853251
Sioux Lookout,50.1,-91.92,24.8,85,90,2.24,CA,1609853252
Joniškis,56.24,23.62,32.0,97,90,13.87,LT,1609853253
Atambua,-9.11,124.89,75.97,87,88,3.27,ID,1609853254
São Filipe,14.9,-24.5,78.03,68,100,6.06,CV,1609853257
Avarua,-21.21,-159.78,78.8,78,0,14.99,CK,1609853259
Lompoc,34.64,-120.46,48.2,100,90,3.36,US,1609853260
Busselton,-33.65,115.33,73.0,42,0,4.0,AU,1609853261
Vero Beach,27.64,-80.4,53.01,93,1,9.28,US,1609853136
Aitape,-3.14,142.35,80.08,83,100,5.57,PG,1609853263
Bluff,-46.6,168.33,51.01,94,5,1.99,NZ,1609853264
Kaitangata,-46.28,169.85,54.0,90,24,1.99,NZ,1609853265
Pevek,69.7,170.31,-15.48,89,100,11.07,RU,1609853267
Mărgău,46.75,22.97,45.0,87,75,6.93,RO,1609853268
Mahébourg,-20.41,57.7,80.6,78,40,13.87,MU,1609853269
Iranshahr,27.2,60.68,62.6,9,0,9.17,IR,1609853270
Dikson,73.51,80.55,8.51,95,100,29.01,RU,1609853271
Shahreza,32.03,51.88,38.12,63,0,4.72,IR,1609853272
Yermekeyevo,54.08,53.67,15.93,96,100,8.34,RU,1609853273
Lebu,-37.62,-73.65,58.33,63,0,17.36,CL,1609853274
Thompson,55.74,-97.86,-5.8,76,40,3.36,CA,1609853275
Rodolfo Sánchez Taboada,31.72,-116.57,53.02,72,0,7.27,MX,1609853278
Lüderitz,-26.65,15.16,73.4,73,18,3.36,NA,1609853279
Bredasdorp,-34.53,20.04,75.2,53,96,9.17,ZA,1609853280
Puerto del Rosario,28.5,-13.86,77.0,53,20,11.41,ES,1609853282
Lorengau,-2.02,147.27,83.59,75,99,9.04,PG,1609853283
Port Hardy,50.7,-127.42,44.6,81,90,23.04,CA,1609853284
Norman Wells,65.28,-126.83,-5.8,70,75,8.05,CA,1609853285
Westfield,42.13,-72.75,32.0,100,90,3.62,US,1609853286
Tasiilaq,65.61,-37.64,19.4,57,20,9.17,GL,1609853287
Albany,42.6,-73.97,33.01,86,61,2.75,US,1609853163
Ordu,40.91,37.68,57.2,62,0,9.17,TR,1609853290
Mbandaka,0.05,18.26,88.72,54,0,2.21,CD,1609853291
Barrow,71.29,-156.79,-18.4,68,90,6.93,US,1609853292
Arraial do Cabo,-22.97,-42.03,84.2,78,40,6.93,BR,1609853293
Río Gallegos,-51.62,-69.22,55.4,43,0,11.41,AR,1609853096
Chapais,49.78,-74.85,15.8,100,90,6.93,CA,1609853296
São José da Coroa Grande,-8.9,-35.15,82.6,64,39,10.09,BR,1609853297
Cabo San Lucas,22.89,-109.91,54.0,38,0,1.99,MX,1609853054
Shimoda,34.67,138.95,41.0,71,100,8.66,JP,1609853299
Punta Arenas,-53.15,-70.92,55.4,54,75,21.92,CL,1609853301
East London,-33.02,27.91,78.8,78,40,19.46,ZA,1609853302
Dingcheng,32.13,115.04,33.76,91,100,6.29,CN,1609853303
Arrondissement de Beaune,47.08,4.75,35.6,74,90,6.93,FR,1609853162
Ilulissat,69.22,-51.1,14.0,56,75,11.41,GL,1609853305
Esil,51.96,66.4,-7.55,86,6,6.44,KZ,1609853306
Kloulklubed,7.04,134.26,77.0,94,90,5.82,PW,1609853307
Lokosovo,61.13,74.82,-18.65,86,0,5.48,RU,1609853309
Pitsunda,43.16,40.34,60.8,25,92,11.18,GE,1609853311
Kavieng,-2.57,150.8,83.37,79,100,10.83,PG,1609853313
Coquimbo,-29.95,-71.34,59.0,87,90,2.24,CL,1609853049
Perehonivka,48.54,30.52,37.62,78,100,11.34,UA,1609853315
Sitka,57.05,-135.33,41.0,75,90,14.99,US,1609853316
Boguchany,58.38,97.45,-16.06,86,100,7.61,RU,1609853317
Gatton,-27.55,152.28,75.2,78,60,8.05,AU,1609853318
Vestmanna,62.16,-7.17,42.8,100,79,10.29,FO,1609853319
Namatanai,-3.67,152.43,80.96,77,40,5.79,PG,1609853321
Leningradskiy,69.38,178.42,-10.26,88,100,12.95,RU,1609853322
Kavaratti,10.57,72.64,82.6,76,100,12.39,IN,1609853323
Padang,-0.95,100.35,82.4,78,75,2.24,ID,1609853324
Kumul,42.8,93.45,10.42,77,0,7.27,CN,1609853325
Belyy Yar,53.6,91.39,-22.0,74,0,4.47,RU,1609853326
Bowen,-20.02,148.23,78.8,94,75,4.7,AU,1609853327
Ponta Delgada,37.73,-25.67,59.0,82,75,21.92,PT,1609853243
Te Anau,-45.42,167.72,47.91,90,62,0.78,NZ,1609853329
New Norfolk,-42.78,147.06,61.0,64,77,0.98,AU,1609853330
George Town,5.41,100.34,78.8,83,40,9.17,MY,1609853332
Karakol,42.49,78.39,19.74,75,3,3.69,KG,1609853334
Sarangani,5.4,125.46,83.08,77,99,18.9,PH,1609853335
Sanmenxia,34.77,111.18,28.58,68,0,1.01,CN,1609853337
Lashio,22.93,97.75,60.48,70,95,1.01,MM,1609853338
Longyearbyen,78.22,15.64,23.0,73,75,21.92,SJ,1609853339
Ixtapa,20.7,-105.2,59.0,93,5,5.82,MX,1609853340
Saint George,37.1,-113.58,33.8,59,1,3.36,US,1609853342
Yangi Marg`ilon,40.43,71.72,21.2,85,75,4.7,UZ,1609853343
Sheboygan,43.73,-87.93,30.99,86,90,8.05,US,1609853344
Muroto-misakicho,33.28,134.15,50.58,62,100,11.01,JP,1609853345
Cam Ranh,11.92,109.16,78.8,78,40,16.11,VN,1609853346
Faanui,-16.48,-151.75,80.08,76,83,13.31,PF,1609853347
Lappeenranta,61.06,28.19,25.0,88,89,5.3,FI,1609853348
Byron Bay,-28.65,153.62,75.99,88,56,1.12,AU,1609853349
Sorgun,39.81,35.19,47.07,66,100,7.2,TR,1609853351
Flinders,-34.58,150.86,69.01,89,41,4.0,AU,1609853352
Port Lincoln,-34.73,135.87,58.1,77,52,17.72,AU,1609853353
St. George's,12.06,-61.75,77.0,83,40,11.41,GD,1609853354
Narasannapeta,18.42,84.05,71.69,76,76,8.12,IN,1609853355
Paamiut,61.99,-49.67,29.28,97,98,11.45,GL,1609853356
Clyde River,70.47,-68.59,-23.8,74,1,5.82,CA,1609853157
Sola,-13.88,167.55,77.0,94,20,12.59,VU,1609853358
Jining,35.41,116.58,27.01,84,2,1.28,CN,1609853361
Isangel,-19.55,169.27,78.8,94,90,6.93,VU,1609853362
Mossamedes,-15.2,12.15,84.2,66,20,14.99,AO,1609853363
Saldanha,-33.01,17.94,77.0,76,0,23.04,ZA,1609853364
Nikolskoye,59.7,30.79,30.2,80,90,2.24,RU,1609853365
Krasnoarmiys'k,48.28,37.18,33.22,90,100,13.18,UA,1609853366
Kieta,-6.22,155.63,80.17,76,82,3.91,PG,1609853367
Beloha,-25.17,45.05,71.65,80,100,7.4,MG,1609853368
Brazzaville,-4.27,15.28,89.6,55,40,3.36,CG,1609853369
Hasaki,35.73,140.83,39.2,93,75,8.05,JP,1609853370
Atar,20.52,-13.05,73.4,17,100,2.24,MR,1609853372
Araouane,18.9,-3.53,83.7,13,53,9.24,ML,1609853373
Moose Factory,51.26,-80.61,32.0,98,90,6.93,CA,1609853374
Sinnamary,5.38,-52.95,81.14,81,88,7.9,GF,1609853376
Cortez,37.35,-108.59,27.0,85,1,4.7,US,1609853377
Esperance,-33.87,121.9,60.8,67,0,17.22,AU,1609853378
Morondava,-20.28,44.28,85.87,65,84,11.79,MG,1609853379
Deputatsky,69.3,139.9,-27.81,84,3,5.84,RU,1609853380
Kaolinovo,43.62,27.12,54.0,61,0,8.01,BG,1609853381
Venado Tuerto,-33.75,-61.97,73.99,48,79,7.0,AR,1609853383
Hervey Bay,-25.3,152.85,79.0,82,100,3.0,AU,1609853384
Kichera,55.94,110.1,-27.42,69,89,3.96,RU,1609853385
Pepel,8.58,-13.06,84.2,70,40,6.93,SL,1609853386
Bethel,41.37,-73.41,32.0,100,75,3.96,US,1609853118
Linhares,-19.39,-40.07,82.45,76,77,6.85,BR,1609853388
San Miguel de Cozumel,20.51,-86.95,75.2,83,75,8.05,MX,1609853346
Meulaboh,4.14,96.13,80.64,83,80,3.29,ID,1609853390
Farafangana,-22.82,47.83,81.14,72,0,13.67,MG,1609853391
Saint-Louis,16.33,-15.0,91.4,27,0,2.24,SN,1609853392
Vila Franca do Campo,37.72,-25.43,59.0,82,75,21.92,PT,1609853393
Viedma,-40.81,-63.0,66.99,74,88,7.38,AR,1609853116
Khatanga,71.97,102.5,-3.08,91,100,19.82,RU,1609853396
Inverell,-29.78,151.12,69.01,88,1,2.21,AU,1609853397
Kruisfontein,-34.0,24.73,70.05,81,100,8.19,ZA,1609853399
Hailar,49.2,119.7,-15.41,89,100,7.11,CN,1609853410
Puerto Escondido,15.85,-97.07,71.6,88,5,4.7,MX,1609853414
Geraardsbergen,50.78,3.91,36.0,92,100,1.01,BE,1609853415
Richards Bay,-28.78,32.04,82.09,78,93,14.38,ZA,1609853426
Ketchikan,55.34,-131.65,39.2,93,90,27.51,US,1609853427
Aklavik,68.22,-135.01,-16.6,75,100,1.12,CA,1609853434
Ridgecrest,35.62,-117.67,46.0,69,20,5.82,US,1609853402
Asău,46.43,26.4,39.0,79,100,2.39,RO,1609853438
Pandan,14.05,124.17,79.41,83,69,11.54,PH,1609853439
Ancud,-41.87,-73.82,59.0,62,0,9.17,CL,1609853441
Dingle,11.0,122.67,75.65,89,100,8.75,PH,1609853442
Mayor Pablo Lagerenza,-19.93,-60.77,77.9,73,98,5.59,PY,1609853444
West Lorne,42.6,-81.6,32.0,97,100,3.36,CA,1609853445
Nemuro,43.32,145.57,21.69,85,42,8.77,JP,1609853446
Līsakovsk,52.54,62.49,-4.18,86,99,2.75,KZ,1609853205
Mgachi,51.05,142.27,-5.19,90,100,10.49,RU,1609853448
Port Blair,11.67,92.75,80.11,78,0,9.28,IN,1609853451
North Bend,43.41,-124.22,45.0,81,1,10.29,US,1609853248
Quelimane,-17.88,36.89,93.2,59,40,11.41,MZ,1609853453
Hlohovec,48.43,17.8,41.0,80,75,10.29,SK,1609853454
Santa Cruz de la Sierra,-17.8,-63.17,73.4,94,90,6.93,BO,1609853284
Taoudenni,22.68,-3.98,83.25,14,75,2.86,ML,1609853456
Egvekinot,66.32,-179.17,-6.32,93,100,2.35,RU,1609853457
Sumbe,-11.21,13.84,86.0,69,0,6.93,AO,1609853459
Ulladulla,-35.35,150.47,66.0,100,75,10.38,AU,1609853461
Khuzdar,27.74,66.64,50.13,43,0,6.06,PK,1609853462
Pacific Grove,36.62,-121.92,45.0,81,1,4.7,US,1609853378
San Patricio,28.02,-97.52,62.6,100,90,6.53,US,1609853464
Dana Point,33.47,-117.7,53.01,93,0,1.99,US,1609853339
Were Īlu,10.6,39.43,62.19,38,0,12.82,ET,1609853466
Camacha,33.08,-16.33,66.2,82,20,16.11,PT,1609853468
Yar-Sale,66.83,70.83,-11.72,88,87,14.45,RU,1609853469
Kangaatsiaq,68.31,-53.46,10.0,94,100,3.11,GL,1609853471
Port Hedland,-20.32,118.57,78.8,50,74,21.92,AU,1609853472
Noumea,-22.28,166.46,84.0,88,96,2.24,NC,1609853473
Baykit,61.67,96.37,-10.61,85,100,6.67,RU,1609853474
Newport,51.59,-3.0,41.0,80,47,3.0,GB,1609853475
Chernyshevskiy,63.01,112.47,-21.77,88,100,8.3,RU,1609853476
Nanortalik,60.14,-45.24,26.92,93,0,5.28,GL,1609853477
Nyurba,63.28,118.33,-24.18,85,100,8.61,RU,1609853479
Lata,40.16,-8.33,50.0,73,0,1.99,PT,1609853480
Øksfjord,70.24,22.35,39.2,93,75,2.24,NO,1609853482
Ossora,59.24,163.07,-2.58,90,96,6.29,RU,1609853483
Palu,-0.89,119.87,75.52,81,100,2.35,ID,1609853484
La Orilla,17.98,-102.23,70.7,77,0,3.2,MX,1609853485
Staraya Kulatka,52.72,47.62,18.5,97,100,7.43,RU,1609853486
Birao,10.28,22.79,97.29,11,0,10.76,CF,1609853488
Haines Junction,60.75,-137.51,5.02,89,100,1.74,CA,1609853489
Galle,6.04,80.22,79.56,83,97,5.21,LK,1609853251
La Marque,29.37,-94.97,57.99,93,90,4.7,US,1609853491
Vila Velha,-20.33,-40.29,86.0,62,20,12.75,BR,1609853276
Codrington,-38.27,141.97,54.91,79,90,10.29,AU,1609853493
Taltal,-25.4,-70.48,69.39,64,3,5.75,CL,1609853494
College,64.86,-147.8,-7.6,76,75,2.24,US,1609853495
Camaná,-16.62,-72.71,73.13,67,4,5.73,PE,1609853359
Qaanaaq,77.48,-69.36,0.9,75,100,6.2,GL,1609853499
Hithadhoo,-0.6,73.08,83.1,78,91,15.61,MV,1609853501
Palapye,-22.55,27.13,90.37,30,79,3.85,BW,1609853304
Assiniboia,49.63,-105.98,32.0,92,100,6.93,CA,1609853504
Juneau,58.3,-134.42,37.99,86,90,21.92,US,1609853251
Bogorodskoye,56.55,37.88,29.84,99,100,3.62,RU,1609853506
Montepuez,-13.13,39.0,74.48,92,100,5.66,MZ,1609853507
Klaksvík,62.23,-6.59,42.8,100,64,10.29,FO,1609853509
Bambous Virieux,-20.34,57.76,80.6,78,40,13.87,MU,1609853510
Saint-Joseph,-21.37,55.62,84.2,62,75,21.92,RE,1609853511
Guerrero Negro,27.98,-114.06,55.47,90,100,3.15,MX,1609853512
Itaqui,-29.13,-56.55,75.51,84,92,11.1,BR,1609853513
Naze,28.37,129.48,59.0,72,75,25.28,JP,1609853514
Constitución,-35.33,-72.42,66.07,51,0,4.23,CL,1609853515
Pathein,16.78,94.73,72.97,77,28,8.68,MM,1609853516
Wawa,9.9,4.42,99.16,11,0,3.18,NG,1609853517
Trairi,-3.28,-39.27,87.96,55,65,13.96,BR,1609853519
Berea,41.37,-81.85,33.8,74,90,3.36,US,1609853476
La Ronge,55.1,-105.28,10.4,85,100,3.36,CA,1609853522
Eyl,7.98,49.82,77.7,51,0,25.21,SO,1609853523
Ituango,7.17,-75.76,65.41,83,52,1.68,CO,1609853488
Vestmannaeyjar,63.44,-20.27,37.4,93,75,8.05,IS,1609853526
Faya,18.39,42.45,68.0,63,20,11.41,SA,1609853528
Falam,22.92,93.68,52.29,85,18,1.5,MM,1609853529
Half Moon Bay,37.46,-122.43,48.99,100,20,3.36,US,1609853530
San Cristobal,7.77,-72.22,75.2,83,40,2.24,VE,1609853531
Naryan-Mar,67.67,53.09,-6.75,91,19,9.22,RU,1609853532
Bambanglipuro,-7.95,110.28,78.04,82,100,5.44,ID,1609853533
Palaia Fokaia,37.72,23.95,60.8,41,20,12.75,GR,1609853534
San Carlos,9.66,-68.58,77.79,58,7,1.86,VE,1609853323
Mount Gambier,-37.83,140.77,57.2,62,90,14.99,AU,1609853536
Vao,-22.67,167.48,78.64,84,100,22.24,NC,1609853537
Diamantino,-14.41,-56.45,81.75,67,57,7.34,BR,1609853253
Bubaque,11.28,-15.83,81.3,39,5,2.98,GW,1609853540
Airai,-8.93,125.41,62.92,100,100,0.43,TL,1609853541
Pemba,-12.97,40.52,84.2,66,75,12.75,MZ,1609853542
Akureyri,65.68,-18.09,37.4,64,20,11.41,IS,1609853543
Moree,-29.47,149.85,77.0,69,33,5.82,AU,1609853545
Salalah,17.02,54.09,77.0,44,0,9.17,OM,1609853547
Bengkulu,-3.8,102.27,79.63,87,100,4.68,ID,1609853548
Tucumcari,35.17,-103.72,37.4,47,1,17.22,US,1609853447
Tazovsky,67.47,78.7,-14.26,88,51,12.35,RU,1609853550
Bani Walid,31.76,13.99,58.26,30,100,8.55,LY,1609853551
Bolshaya Rechka,51.95,104.74,-18.4,75,75,8.95,RU,1609853552
Petrokamenskoye,57.72,60.65,-2.83,92,91,5.93,RU,1609853553
Fare,-16.7,-151.02,80.28,75,100,13.53,PF,1609853554
Inhambane,-23.86,35.38,89.6,59,40,11.41,MZ,1609853439
Takoradze,4.88,-1.76,85.1,71,100,9.84,GH,1609853556
Bad Frankenhausen,51.35,11.1,35.01,86,100,1.01,DE,1609853558
Upernavik,72.79,-56.15,7.93,94,100,33.71,GL,1609853559
São João da Barra,-21.64,-41.05,86.0,62,0,5.82,BR,1609853560
Yaan,7.38,8.57,101.43,16,82,6.89,NG,1609853561
Husavik,66.04,-17.34,37.4,64,20,11.41,IS,1609853562
Comodoro Rivadavia,-45.87,-67.5,69.8,43,0,10.29,AR,1609853290
Bilma,18.69,12.92,93.92,10,0,6.55,NE,1609853564
Luanda,-8.84,13.23,86.0,58,40,14.99,AO,1609853459
Yellowknife,62.46,-114.35,-25.6,74,75,8.05,CA,1609853404
Rawson,-43.3,-65.1,65.23,36,0,6.89,AR,1609853466
Praia,14.92,-23.51,86.0,15,75,19.46,CV,1609853397
Wilmington,34.23,-77.94,41.0,93,20,4.43,US,1609853277
Baião,-2.79,-49.67,88.79,54,80,4.68,BR,1609853573
Panabá,21.28,-88.27,72.27,83,95,8.1,MX,1609853574
Zanjān,36.67,48.48,33.8,64,0,6.93,IR,1609853575
Rāyadrug,14.7,76.87,75.07,70,78,12.21,IN,1609853576
Bindi,9.92,-11.45,96.89,17,27,7.52,SL,1609853577
Channarāyapatna,12.9,76.39,72.82,67,75,4.52,IN,1609853579
Tuy Hoa,13.08,109.3,73.96,90,96,13.73,VN,1609853555
Nefteyugansk,61.1,72.6,-13.0,75,0,8.95,RU,1609853581
Alihe,50.57,123.72,-12.71,83,100,2.48,CN,1609853582
Kyabé,9.45,18.94,101.75,8,0,9.4,TD,1609853583
Hayange,49.33,6.05,37.99,89,100,1.01,FR,1609853584
Cidreira,-30.18,-50.21,80.28,61,100,5.59,BR,1609853586
Vostok,46.49,135.88,-15.05,91,100,4.23,RU,1609853587
Avera,33.19,-82.53,44.01,87,40,4.7,US,1609853589
Kahului,20.89,-156.47,73.4,69,40,5.82,US,1609853590
Caravelas,-17.71,-39.25,84.99,60,83,10.76,BR,1609853591
Vizianagaram,18.12,83.42,78.8,69,94,8.05,IN,1609853592
Avilés,43.55,-5.92,45.0,86,20,12.75,ES,1609853593
Cuamba,-14.8,36.54,80.33,72,55,4.25,MZ,1609853594
Silva Jardim,-22.65,-42.39,84.2,68,40,3.36,BR,1609853595
Hirara,24.8,125.28,67.28,83,100,31.9,JP,1609853596
Lookan,5.04,120.1,81.59,73,100,2.73,PH,1609853597
Ostrovnoy,68.05,39.51,11.21,94,49,13.0,RU,1609853598
Nakhon Thai,17.1,100.84,73.4,83,0,2.84,TH,1609853601
Krasnosel'kup,65.7,82.47,-15.25,88,98,12.39,RU,1609853602
Jaen,38.0,-3.5,50.0,65,100,3.36,ES,1609853603
Evensk,61.95,159.23,-12.53,79,37,7.72,RU,1609853604
Outlook,51.5,-107.05,32.0,93,100,3.36,CA,1609853605
Liverpool,53.41,-2.98,41.0,75,0,12.75,GB,1609853357
Roald,62.58,6.13,33.8,64,0,5.82,NO,1609853607
Beringovskiy,63.05,179.32,-8.07,85,12,10.83,RU,1609853608
Kununurra,-15.77,128.73,84.2,89,11,7.0,AU,1609853609
Provideniya,64.38,-173.3,0.59,84,13,11.81,RU,1609853612
Lavrentiya,65.58,-171.0,-6.39,87,0,13.91,RU,1609853613
Westport,41.14,-73.36,35.01,85,1,7.9,US,1609853546
Karaton,-6.34,106.1,82.99,83,20,2.24,ID,1609853616
Sibolga,1.74,98.78,78.69,83,87,3.02,ID,1609853617
Tolaga Bay,-38.37,178.3,60.6,90,48,5.01,NZ,1609853618
Broken Hill,-31.95,141.43,73.4,28,31,9.17,AU,1609853510
Moerai,-22.43,-151.33,78.51,75,5,11.16,PF,1609853621
Wadi Maliz,36.47,8.55,57.2,33,40,5.82,TN,1609853622
Changde,29.05,111.68,40.17,69,83,7.34,CN,1609853623
Gornyak,50.99,81.47,-24.02,87,93,1.92,RU,1609853624
Bundaberg,-24.85,152.35,77.0,88,100,1.23,AU,1609853625
Itoman,26.12,127.67,62.6,82,75,19.46,JP,1609853626
Palmer,42.16,-72.33,30.99,100,90,4.79,US,1609853628
Khasan,42.43,130.64,9.72,80,0,15.46,RU,1609853629
Batagay-Alyta,67.8,130.41,-21.57,81,0,1.79,RU,1609853630
Boden,65.83,21.69,14.0,92,90,1.12,SE,1609853631
Saint-Pierre,-21.34,55.48,84.2,62,75,21.92,RE,1609853632
Philadelphia,39.95,-75.16,39.2,82,90,3.44,US,1609853443
Palm Coast,29.59,-81.21,50.0,93,1,5.97,US,1609853601
Laguna,38.42,-121.42,39.99,93,90,1.45,US,1609853635
Wamba,8.93,8.6,100.65,10,24,7.23,NG,1609853636
Khāsh,28.22,61.22,40.98,46,0,5.21,IR,1609853638
Matara,5.95,80.54,78.1,87,56,6.2,LK,1609853627
Calama,-22.47,-68.93,60.8,44,0,8.05,CL,1609853640
San Quintín,30.48,-115.95,53.69,83,0,1.3,MX,1609853641
Semirara,12.07,121.4,82.08,77,90,19.55,PH,1609853642
Okhotsk,59.38,143.3,-8.86,84,98,12.35,RU,1609853643
Mamlyutka,54.94,68.54,-9.4,76,0,17.9,KZ,1609853644
Pabradė,55.0,25.78,34.0,100,90,8.05,LT,1609853645
Ust-Kuyga,70.02,135.6,-34.89,80,64,9.24,RU,1609853647
Meridian,43.61,-116.39,36.0,100,1,5.82,US,1609853404
Kemijärvi,66.71,27.43,9.81,95,5,3.24,FI,1609853649
Kerema,-7.96,145.78,79.77,82,99,4.74,PG,1609853650
Severo-Yeniseyskiy,60.37,93.04,-17.93,90,100,4.7,RU,1609853651
Wai,17.93,73.9,72.36,64,63,1.74,IN,1609853631
Barra de Tecoanapa,16.52,-98.75,75.43,81,0,4.72,MX,1609853653
Coyhaique,-45.58,-72.07,55.4,58,0,2.24,CL,1609853654
Bathsheba,13.22,-59.52,84.2,58,20,18.34,BB,1609853655
Teknāf,20.86,92.31,71.71,72,90,7.29,BD,1609853656
Pinega,64.7,43.39,4.15,94,45,3.0,RU,1609853658
Auki,-8.77,160.7,78.4,71,100,5.19,SB,1609853659
Nabire,-3.37,135.48,77.54,89,100,4.09,ID,1609853660
Quatre Cocos,-20.21,57.76,80.6,78,40,13.87,MU,1609853661
Iqaluit,63.75,-68.51,-5.01,70,90,3.36,CA,1609853662
Narsaq,60.92,-46.05,28.4,68,75,2.24,GL,1609853663
Alta Floresta,-9.88,-56.09,83.21,71,84,3.83,BR,1609853664
Hofn,64.25,-15.21,38.32,81,100,7.85,IS,1609853667
Yangshe,31.89,120.61,39.0,79,91,8.99,CN,1609853668
Neiafu,-18.65,-173.98,77.0,94,75,8.05,TO,1609853669
Enniscorthy,52.5,-6.56,39.0,93,40,10.29,IE,1609853670
Torbay,47.67,-52.73,34.0,91,90,18.34,CA,1609853671
Zalesovo,53.99,84.74,-16.47,85,0,8.01,RU,1609853672
Mogadishu,2.04,45.34,79.79,67,36,25.17,SO,1609853530
Aleksandrov Gay,50.15,48.57,10.9,94,0,10.18,RU,1609853674
Lubumbashi,-11.66,27.48,72.95,88,100,5.21,CD,1609853675
Warrnambool,-38.38,142.48,55.0,92,99,11.68,AU,1609853677
Tigzirt,36.89,4.12,54.68,48,100,8.63,DZ,1609853678
Brigantine,39.41,-74.36,37.99,93,90,4.7,US,1609853679
Churapcha,62.0,132.43,-48.05,77,100,1.32,RU,1609853680
Karratha,-20.74,116.85,85.3,64,85,4.12,AU,1609853681
Broome,42.25,-75.83,32.0,92,90,3.36,US,1609853682
Aktash,50.3,87.73,-24.23,82,0,5.53,RU,1609853683
Jinxiang,27.43,120.61,50.65,80,100,19.1,CN,1609853684
São Félix do Xingu,-6.64,-51.99,83.8,65,99,4.52,BR,1609853685
Makkah al Mukarramah,21.43,39.83,83.64,47,4,10.13,SA,1609853490
Margate,51.38,1.39,42.01,80,100,3.0,GB,1609853688
Tura,25.52,90.22,62.71,71,51,2.95,IN,1609853689
Kassala,15.45,36.4,93.94,14,56,12.59,SD,1609853690
Harrisonville,38.65,-94.35,28.0,92,1,4.83,US,1609853692
Langarūd,37.2,50.15,48.2,70,20,6.93,IR,1609853693
La Rioja,42.25,-2.5,41.0,92,75,14.99,ES,1609853695
Nishihara,26.18,127.76,62.6,77,75,16.11,JP,1609853696
Dhidhdhoo,6.88,73.1,82.83,77,100,11.12,MV,1609853698
Coxim,-18.51,-54.76,89.53,47,69,9.26,BR,1609853699
Coos Bay,43.37,-124.22,44.6,81,1,10.29,US,1609853701
Swellendam,-34.02,20.44,75.2,53,100,9.17,ZA,1609853704
Mpulungu,-8.76,31.11,78.71,62,25,3.71,ZM,1609853705
Luanda,-8.84,13.23,86.0,58,40,14.99,AO,1609853459
Māngrol,21.12,70.12,70.81,42,0,15.43,IN,1609853707
Severnoye,56.35,78.36,-18.0,85,0,5.3,RU,1609853708
Kyshtovka,56.55,76.63,-16.65,86,27,4.9,RU,1609853710
Touros,-5.2,-35.46,86.0,58,40,14.99,BR,1609853524
Mossendjo,-2.95,12.73,80.24,80,65,4.54,CG,1609853712
Feicheng,35.26,117.97,23.95,91,66,3.29,CN,1609853713
Forestville,38.85,-76.88,41.0,80,90,3.94,US,1609853714
Kismayo,-0.36,42.55,80.55,70,67,20.22,SO,1609853715
Bosaso,11.28,49.18,78.8,65,0,11.41,SO,1609853716
Chontalpa,17.7,-93.52,70.39,95,52,1.92,MX,1609853717
Saint-François,46.42,3.91,36.0,74,90,4.7,FR,1609853719
Mandurah,-32.55,115.7,80.01,24,0,14.83,AU,1609853720
Sambava,-14.27,50.17,82.22,71,4,11.99,MG,1609853721
São Gabriel da Cachoeira,-0.13,-67.09,77.0,88,75,3.36,BR,1609853722
Hirado,33.36,129.55,44.6,65,75,6.93,JP,1609853446
San Ramon,37.78,-121.98,44.01,100,90,3.36,US,1609853680
Buin,-33.73,-70.75,66.2,37,0,4.7,CL,1609853727
Kamenka,51.32,42.77,21.99,89,61,14.52,RU,1609853728
Cusset,46.13,3.46,36.0,85,90,6.93,FR,1609853729
Galesburg,40.95,-90.37,21.0,100,1,6.98,US,1609853730
Bela Vista,-22.11,-56.52,77.4,87,100,7.14,BR,1609853731
Motema,8.6,-11.03,94.57,32,17,2.06,SL,1609853732
Seoul,37.57,126.98,19.4,37,1,6.73,KR,1609853494
Formosa,-26.18,-58.18,80.6,69,20,5.01,AR,1609853734
Miandrivazo,-19.52,45.47,86.34,66,72,8.46,MG,1609853736
Srednekolymsk,67.45,153.68,-27.24,85,96,9.86,RU,1609853737
Flin Flon,54.77,-101.86,8.6,92,75,2.24,CA,1609853739
Ust-Tsilma,65.44,52.15,-3.3,91,5,3.78,RU,1609853740
Winneba,5.35,-0.62,89.6,66,20,9.17,GH,1609853741
Geraldton,-28.77,114.6,86.0,17,0,11.41,AU,1609853742
Tinqueux,49.25,3.98,37.4,86,90,9.17,FR,1609853743
Yulara,-25.24,130.99,78.8,26,99,16.11,AU,1609853744
Muyinga Province,-2.83,30.33,73.18,70,64,4.38,BI,1609853745
Neryungri,56.67,124.65,-31.16,81,100,5.84,RU,1609853701
Boyarka,50.32,30.3,32.0,97,90,11.18,UA,1609853748
Cathedral City,33.78,-116.47,51.8,50,1,3.36,US,1609853472
Bar Harbor,44.39,-68.2,30.99,86,90,12.75,US,1609853750
Maragogi,-9.01,-35.22,83.07,63,34,10.98,BR,1609853751
Salas,43.41,-6.26,43.0,86,20,12.75,ES,1609853752
Morant Bay,17.88,-76.41,79.0,57,20,6.93,JM,1609853754
Mahanoro,-19.9,48.8,80.71,74,2,8.32,MG,1609853757
Lagunas,-5.23,-75.68,73.6,98,100,2.82,PE,1609853758
Den Helder,52.96,4.76,39.0,93,75,20.8,NL,1609853759
Souillac,-20.52,57.52,80.6,78,40,13.87,MU,1609853761
Tabou,4.42,-7.35,83.57,72,33,8.99,CI,1609853762
Rockhampton,-23.38,150.5,78.8,83,97,2.24,AU,1609853644
Kualakapuas,-3.01,114.39,77.0,100,90,1.12,ID,1609853764
Najrān,17.49,44.13,75.2,33,0,6.93,SA,1609853765
Yumen,40.28,97.2,8.31,64,0,10.0,CN,1609853766
Boende,-0.22,20.87,83.89,76,64,1.1,CD,1609853767
Sisimiut,66.94,-53.67,12.94,93,100,10.67,GL,1609853769
Rafrāf,37.19,10.18,59.0,42,20,11.41,TN,1609853770
Salinas,36.68,-121.66,44.6,100,90,3.06,US,1609853523
Caiapônia,-16.96,-51.81,81.0,59,99,6.8,BR,1609853772
Zatoka,46.07,30.47,41.0,100,90,13.42,UA,1609853773
Lebedyn,50.59,34.48,30.56,95,100,11.81,UA,1609853774
Yambio,4.57,28.4,91.27,28,91,1.66,SS,1609853775
La Plata,-34.92,-57.95,81.0,78,20,11.41,AR,1609853484
Aden,12.78,45.04,77.43,72,4,14.05,YE,1609853604
Khovd,48.01,91.64,-7.56,71,0,2.44,MN,1609853780
Labuhan,-6.88,112.21,77.47,87,100,9.44,ID,1609853781
San Javier,37.81,-0.84,55.4,26,0,8.05,ES,1609853782
Grand Gaube,-20.01,57.66,80.01,76,1,8.99,MU,1609853783
Kaputa,-8.47,29.66,76.96,75,80,2.59,ZM,1609853784
Qui Nhon,13.77,109.23,74.1,88,100,16.22,VN,1609853785
Dayong,25.02,118.29,57.2,71,40,15.66,CN,1609853789
Rocha,-34.48,-54.33,85.75,45,37,11.25,UY,1609853791
Ubari,26.59,12.78,72.16,34,49,12.19,LY,1609853792
Christiana,-27.91,25.16,72.12,70,100,14.07,ZA,1609853793
Ludvika,60.15,15.19,26.6,92,90,5.82,SE,1609853794
Howard Springs,-12.5,131.05,84.2,79,75,5.82,AU,1609853795
Key West,24.56,-81.78,64.99,68,1,9.17,US,1609853722
Kayerkan,69.35,87.76,-14.8,75,90,24.61,RU,1609853797
Vardø,70.37,31.11,26.6,92,0,31.09,NO,1609853798
Kathu,7.92,98.33,84.99,74,20,9.17,TH,1609853800
Berdigestyakh,62.1,126.7,-39.35,80,100,3.62,RU,1609853801
Gouyave,12.16,-61.73,82.4,69,20,11.41,GD,1609853802
Foumban,5.73,10.9,90.55,16,0,5.53,CM,1609853803
Tommot,58.96,126.29,-24.75,81,100,8.08,RU,1609853804
Cherskiy,68.75,161.3,-23.19,86,100,9.82,RU,1609853805
Alofi,-19.06,-169.92,75.2,100,100,3.36,NU,1609853806
Saýat,38.78,63.88,24.8,73,90,2.24,TM,1609853807
Nichinan,31.6,131.37,48.2,78,75,11.41,JP,1609853548
Río Cuarto,-33.13,-64.35,62.01,93,75,13.87,AR,1609853811
Springdale,36.19,-94.13,30.2,100,1,4.18,US,1609853731
Porosozero,62.72,32.73,13.12,97,95,3.8,RU,1609853813
Glendive,47.11,-104.71,28.4,68,90,7.02,US,1609853814
Safford,32.83,-109.71,48.0,47,1,3.36,US,1609853815
Cehegín,38.09,-1.8,55.99,27,0,8.05,ES,1609853816
Oudtshoorn,-33.59,22.2,71.6,88,90,10.29,ZA,1609853817
Opuwo,-18.06,13.84,86.7,22,99,8.21,NA,1609853819
Talaya,61.38,152.75,-32.1,81,100,1.72,RU,1609853820
Torrington,41.8,-73.12,33.01,96,0,5.55,US,1609853821
Hay River,60.82,-115.8,-11.2,76,100,6.93,CA,1609853822
Totness,5.88,-56.32,82.2,73,9,6.85,SR,1609853823
Jinka,5.65,36.65,81.34,35,21,2.26,ET,1609853824
Sulangan,11.14,123.72,82.15,78,60,15.05,PH,1609853825
Bagdarin,54.43,113.6,-26.68,75,68,4.47,RU,1609853826
Lozna,47.32,23.47,44.6,93,90,6.93,RO,1609853828
Qazax,41.09,45.37,36.9,79,0,1.81,AZ,1609853829
Lagoa,39.05,-27.98,60.26,81,100,36.75,PT,1609853830
Sørland,67.67,12.69,44.6,93,75,17.22,NO,1609853831
Buala,-8.14,159.59,80.94,72,100,4.29,SB,1609853832
Palauig,15.44,119.9,79.83,78,0,6.4,PH,1609853833
Tokur,53.13,132.9,-33.23,84,100,0.87,RU,1609853834
Nouadhibou,20.93,-17.03,75.2,33,86,4.7,MR,1609853835
Salinópolis,-0.61,-47.36,85.19,66,63,11.63,BR,1609853837
Tecpan,14.76,-90.99,57.99,93,75,13.87,GT,1609853838
Rivadavia,-33.19,-68.46,66.2,68,40,9.17,AR,1609853827
Santa Cruz de Tenerife,28.47,-16.25,70.0,72,20,9.17,ES,1609853841
Alice Springs,-23.7,133.88,77.0,77,0,8.08,AU,1609853842
Andradas,-22.07,-46.57,69.8,83,75,5.68,BR,1609853843
Rāpar,23.57,70.63,65.53,40,0,6.26,IN,1609853846
Semey,50.41,80.23,-31.0,66,0,4.47,KZ,1609853847
Kromy,52.69,35.77,27.64,96,100,8.34,RU,1609853848
Banepā,27.63,85.52,57.2,67,75,3.36,NP,1609853849
Rio Grande,-32.03,-52.1,78.8,78,75,9.17,BR,1609853570
Cajazeiras,-6.89,-38.56,96.3,33,26,3.85,BR,1609853852
Mikkeli,61.69,27.27,16.0,95,89,1.01,FI,1609853629
Chabahar,25.29,60.64,67.21,35,0,9.08,IR,1609853854
Ranfurly,-45.13,170.1,48.0,98,0,1.83,NZ,1609853856
Mandera,3.94,41.87,94.86,19,0,14.09,KE,1609853857
Grindavik,63.84,-22.43,33.8,72,75,6.93,IS,1609853858
Tual,-5.67,132.75,83.59,77,100,9.53,ID,1609853859
Nushki,29.55,66.02,43.65,50,0,1.52,PK,1609853860
Sabha,27.04,14.43,72.95,30,9,13.44,LY,1609853861
Isla Vista,34.41,-119.86,53.01,100,1,6.22,US,1609853862
Ternitz,47.72,16.04,39.2,100,86,9.17,AT,1609853863
Price,39.6,-110.81,26.6,92,90,3.87,US,1609853865
Makakilo City,21.35,-158.09,69.8,88,20,3.36,US,1609853866
San Rafael,-34.62,-68.33,65.98,57,96,11.1,AR,1609853867
Datong,40.09,113.29,7.95,66,0,7.49,CN,1609853868
Luwuk,-0.95,122.79,78.39,75,100,4.27,ID,1609853613
Kandi,11.13,2.94,101.8,8,26,7.27,BJ,1609853871
Mabaruma,8.2,-59.78,82.67,71,100,2.55,GY,1609853873
Saint-Augustin,51.23,-58.65,22.71,92,6,9.28,CA,1609853874
Caluquembe,-13.78,14.68,75.29,41,93,8.12,AO,1609853875
Paragominas,-2.97,-47.48,84.76,67,41,4.72,BR,1609853876
Jieshi,22.81,115.83,60.91,81,25,17.25,CN,1609853877
